[
	{
		"restaurant_id": 1008932,
		"name": "하삼동커피-남포점",
		"company_id": "368-10-01786",
		"phone": "0000000000",
		"address": "부산광역시 중구 남포동3가 5-10 1층",
		"sido": "부산광역시",
		"sigungu": "중구",
		"franchise_yn": 0,
		"franchise_name": null,
		"franchise_id": -1,
		"categories": "카페디저트,프랜차이즈",
		"delivery_yn": 1,
		"delivery_time": "22분",
		"delivery_fee": 0,
		"lat": 35.0984780764655,
		"lng": 129.030706386466,
		"avg": 0.0,
		"review_count": 0,
		"updated_at": "2021-08-23 14:33:14"
	},
	{
		"restaurant_id": 1009139,
		"name": "페어런츠커피&샐러드-중앙동점",
		"company_id": "164-08-01691",
		"phone": "0000000000",
		"address": "부산광역시 중구 중앙동4가 84-14 1층103호 (중앙동4가)",
		"sido": "부산광역시",
		"sigungu": "중구",
		"franchise_yn": 0,
		"franchise_name": null,
		"franchise_id": -1,
		"categories": "카페디저트",
		"delivery_yn": 1,
		"delivery_time": "23분",
		"delivery_fee": 0,
		"lat": 35.1065508238044,
		"lng": 129.037411434863,
		"avg": 0.0,
		"review_count": 0,
		"updated_at": "2021-08-23 14:33:16"
	},
	{
		"restaurant_id": 1008645,
		"name": "우헤헤",
		"company_id": "102-29-01117",
		"phone": "0000000000",
		"address": "부산광역시 영도구 영선동1가 116-1 1층",
		"sido": "부산광역시",
		"sigungu": "영도구",
		"franchise_yn": 0,
		"franchise_name": null,
		"franchise_id": -1,
		"categories": "카페디저트",
		"delivery_yn": 1,
		"delivery_time": "27분",
		"delivery_fee": 1000,
		"lat": 35.0898129747751,
		"lng": 129.044803665251,
		"avg": 0.0,
		"review_count": 0,
		"updated_at": "2021-08-23 14:33:17"
	},
	{
		"restaurant_id": 1001517,
		"name": "와플칸-괴정점",
		"company_id": "447-29-01271",
		"phone": "050702870366",
		"address": "부산광역시 사하구 괴정동 1284 사하역 비스타 동원 302동 B210호",
		"sido": "부산광역시",
		"sigungu": "사하구",
		"franchise_yn": 0,
		"franchise_name": null,
		"franchise_id": -1,
		"categories": "카페디저트,프랜차이즈",
		"delivery_yn": 1,
		"delivery_time": "26분",
		"delivery_fee": 1500,
		"lat": 35.0998994246506,
		"lng": 128.984964235336,
		"avg": 5.0,
		"review_count": 3,
		"updated_at": "2021-08-23 14:40:01"
	}
]